[
  {
    "id": 294,
    "name": "Kontakt- und Informationsstelle für Selbsthilfegruppen",
    "street": "Industriestraße 21-21a",
    "address": "Industriestraße 21-21a",
    "city": "Dresden",
    "postalCode": "01129",
    "state": "Sachsen",
    "lat": 51.0504,
    "lng": 13.7373,
    "phone": "03 51 / 488 13 80",
    "contact": "kiss@dresden.de",
    "mail": "kiss@dresden.de",
    "url": "https://www.dresden.de/selbsthilfe",
    "description": "Kontakt- und Informationsstelle für Selbsthilfegruppen"
  },
  {
    "id": 302,
    "name": "Kontakt- und Informationsstelle für Selbsthilfegruppen (KISS) für den Landkreis Sächsische Schweiz - Osterzgebirge",
    "street": "Schillerstraße 35",
    "address": "Schillerstraße 35",
    "city": "Pirna",
    "postalCode": "01796",
    "state": "Sachsen",
    "lat": 50.9638,
    "lng": 13.9382,
    "phone": "035 01 / 58 27 13",
    "contact": "kiss-pirna@buergerhilfe-sachsen.de",
    "mail": "kiss-pirna@buergerhilfe-sachsen.de",
    "url": "https://www.selbsthilfegruppen-pirna.de",
    "description": "Kontakt- und Informationsstelle für Selbsthilfegruppen (KISS) für den Landkreis Sächsische Schweiz - Osterzgebirge"
  },
  {
    "id": 182,
    "name": "Regionale Kontaktstelle für Selbsthilfe und Interessengruppen",
    "street": "Alte Gartenstraße 24",
    "address": "Alte Gartenstraße 24",
    "city": "Lauchhammer",
    "postalCode": "01979",
    "state": "Brandenburg",
    "lat": 51.4913,
    "lng": 13.7684,
    "phone": "035 74 / 46 46 58",
    "contact": "rekosi@kooperationsanstiftung.de",
    "mail": "rekosi@kooperationsanstiftung.de",
    "url": "https://www.selbsthilfe-osl.de",
    "description": "Regionale Kontaktstelle für Selbsthilfe und Interessengruppen"
  },
  {
    "id": 100,
    "name": "KISS - Kontakt- und Informationsstelle für Selbsthilfe Berlin",
    "street": "Bismarckstraße 101",
    "address": "Bismarckstraße 101",
    "city": "Berlin",
    "postalCode": "10625",
    "state": "Berlin",
    "lat": 52.5200,
    "lng": 13.4050,
    "phone": "030 / 89 06 88 10",
    "contact": "info@selbsthilfe-berlin.de",
    "mail": "info@selbsthilfe-berlin.de",
    "url": "https://www.selbsthilfe-berlin.de",
    "description": "KISS - Kontakt- und Informationsstelle für Selbsthilfe Berlin"
  },
  {
    "id": 150,
    "name": "Selbsthilfekontaktstelle München",
    "street": "Westendstraße 68",
    "address": "Westendstraße 68",
    "city": "München",
    "postalCode": "80339",
    "state": "Bayern",
    "lat": 48.1351,
    "lng": 11.5820,
    "phone": "089 / 53 29 56 61",
    "contact": "kontakt@selbsthilfe-muenchen.de",
    "mail": "kontakt@selbsthilfe-muenchen.de",
    "url": "https://www.selbsthilfe-muenchen.de",
    "description": "Selbsthilfekontaktstelle München"
  }
]
